[
    {
        "title": "Republica",
        "coordinates": [
            -46.642748,
            -23.54312
        ]
    },
    {
        "title": "Mackenzie",
        "coordinates": [
            -46.651659,
            -23.54807
        ]
    },
    {
        "title": "Shopping Maia B",
        "coordinates": [
            -46.539545,
            -23.44375
        ]
    },
    {
        "title": "Morumbi Saraiva",
        "coordinates": [
            -46.699053,
            -23.62376
        ]
    },
    {
        "title": "Shopping Center Norte",
        "coordinates": [
            -46.617417,
            -23.51575
        ]
    },
    {
        "title": "Mooca Plaza Shopping",
        "coordinates": [
            -46.594408,
            -23.57983
        ]
    },
    {
        "title": "Shopping Metro Tucuruvi",
        "coordinates": [
            -46.602695,
            -23.47984
        ]
    },
    {
        "title": "Market Place",
        "coordinates": [
            -46.696713,
            -23.61645
        ]
    }
]
